[
    {
        "id": 1,
        "name": "GSP ENTREPÔT",
        "email": "example@gmail.com",
        "photo": "ruta/foto.jpg",
        "location": { "latitude": 45.43345960340202, "longitude": -73.47431157631218}
    },
    {
        "id": 2,
        "name": "GSP ENTRETIEN",
        "email": "example@gmail.com",
        "photo": "ruta/foto.jpg",
        "location": { "latitude": 40.7128, "longitude": -74.0060 }
    },
    {
        "id": 3,
        "name": "Aluprotec",
        "email": "example@gmail.com",
        "photo": "ruta/foto.jpg",
        "location": { "latitude": 45.56131095904411, "longitude": -73.4374625450759 }
    },
    {
        "id": 4,
        "name": "BGE Cuisines Personalisées/ Atelier BGE",
        "email": "example@gmail.com",
        "photo": "ruta/foto.jpg",
        "location": { "latitude": 45.415644901474685, "longitude": -73.4893879027542 }
    },
    {
        "id": 5,
        "name": "Centre Coyotes",
        "email": "example@gmail.com",
        "photo": "ruta/foto.jpg",
        "location": { "latitude": 45.37717531597671, "longitude": -73.53334926042739 }
    },
    {
        "id": 6,
        "name": "Centre Dentaire Cousineau",
        "email": "example@gmail.com",
        "photo": "ruta/foto.jpg",
        "location": { "latitude": 45.477947505953395, "longitude": -73.44830228740851}
    },
    {
        "id": 7,
        "name": "Centre Dentaire Du Vieux Longueuil",
        "email": "example@gmail.com",
        "photo": "ruta/foto.jpg",
        "location": { "latitude": 45.53535059931762, "longitude": -73.50644372933753}
    },
    {
        "id": 8,
        "name": "Centre dentaire Rome-Milan",
        "email": "example@gmail.com",
        "photo": "ruta/foto.jpg",
        "location": { "latitude": 45.451667493369605, "longitude": -73.45644987391677}
    },
    {
        "id": 9,
        "name": "Centre des Générations de Boucherville - Grenier des aubaines",
        "email": "example@gmail.com",
        "photo": "ruta/foto.jpg",
        "location": { "latitude": 45.614695558666696, "longitude": -73.4518585604162}
    },
    {
        "id": 10,
        "name": "Clinique de Fertilité Miacleo",
        "email": "example@gmail.com",
        "photo": "ruta/foto.jpg",
        "location": { "latitude": 45.47709559303687, "longitude": -73.47443927576528}
    },
    {
        "id": 11,
        "name": "Clinique Dentaire Dre. Nathalie Bouchard & Abergel",
        "email": "example@gmail.com",
        "photo": "ruta/foto.jpg",
        "location": { "latitude": 45.50304978361223, "longitude": -73.50979611624298}
    }
]